,City,Latitude,Longitude,Humidity,Max Temp,Cloudiness,Wind Speed,Date
0,hobart,-42.8794,147.3294,47,59.0,20,11.5,1619424301
1,busselton,-33.65,115.3333,57,73.0,100,5.77,1619424298
2,marsa matruh,31.3525,27.2453,63,66.2,40,14.97,1619424128
3,ponta do sol,32.6667,-17.1,79,60.01,31,3.0,1619424317
4,fortuna,40.5982,-124.1573,100,46.99,90,4.14,1619424473
5,cape town,-33.9258,18.4232,82,64.0,20,14.97,1619424120
6,rikitea,-23.1203,-134.9692,77,77.14,9,8.21,1619424328
7,saskylakh,71.9167,114.0833,92,12.65,100,17.87,1619424452
8,ushuaia,-54.8,-68.3,91,41.11,100,3.76,1619424300
9,kruisfontein,-34.0033,24.7314,32,77.79,100,2.19,1619424406
10,atuona,-9.8,-139.0333,70,80.01,100,17.76,1619424333
11,ribeira grande,38.5167,-28.7,77,59.0,40,8.05,1619424335
12,antofagasta,-23.65,-70.4,77,57.2,0,4.61,1619424207
13,kapaa,22.0752,-159.319,78,73.4,75,17.27,1619424348
14,vaini,-21.2,-175.2,94,77.0,75,3.44,1619424295
15,mataura,-46.1927,168.8643,73,46.0,79,14.0,1619424327
16,bluff,-46.6,168.3333,73,46.0,85,14.0,1619424069
17,new norfolk,-42.7826,147.0587,76,57.0,98,1.01,1619424306
18,ovre ardal,61.3167,7.8,51,32.0,0,6.91,1619424734
19,qaanaaq,77.484,-69.3632,63,30.04,52,9.98,1619424310
20,albanel,48.8832,-72.4487,80,30.2,88,18.41,1619424734
21,homer,59.6425,-151.5483,65,44.01,1,1.99,1619424608
22,saint george,37.1041,-113.5841,22,66.99,1,9.22,1619424367
23,goma,-1.6792,29.2228,75,70.68,48,3.13,1619424735
24,butaritari,3.0707,172.7902,76,82.49,8,13.44,1619424327
25,kavieng,-2.5744,150.7967,72,82.9,95,4.16,1619424400
26,port alfred,-33.5906,26.891,40,79.92,100,9.15,1619424297
27,longyearbyen,78.2186,15.6401,53,19.4,20,5.75,1619424567
28,caluquembe,-13.7833,14.6833,50,68.05,70,5.35,1619424736
29,khatanga,71.9667,102.5,86,17.92,92,15.46,1619424339
30,chaves,33.3834,-104.4505,8,71.6,1,12.66,1619424737
31,el carrizo,24.0261,-106.8814,57,68.95,100,1.83,1619424737
32,georgetown,5.4112,100.3354,70,90.0,40,10.36,1619424167
33,albany,42.6001,-73.9662,56,39.99,54,4.0,1619424316
34,matara,5.9485,80.5353,65,86.85,24,8.12,1619424533
35,zheshart,62.0731,49.5733,72,38.7,100,3.94,1619424738
36,pascagoula,30.3658,-88.5561,93,54.0,1,7.29,1619424694
37,almaznyy,48.0448,40.045,93,46.4,75,15.66,1619424739
38,eldorado,-23.7869,-54.2836,94,59.77,20,4.99,1619424739
39,yingcheng,30.95,113.55,72,64.4,20,2.24,1619424740
40,tasiilaq,65.6145,-37.6368,70,39.2,75,20.71,1619424338
41,hobyo,5.3505,48.5268,54,87.64,41,10.09,1619424374
42,mercedes,-34.6515,-59.4307,99,48.0,90,4.09,1619424442
43,lagoa,39.05,-27.9833,85,58.82,100,6.6,1619424409
44,severo-kurilsk,50.6789,156.125,94,30.61,100,16.24,1619424368
45,ljungby,56.8332,13.9408,42,43.0,0,6.91,1619424741
46,san quintin,30.4833,-115.95,86,56.16,21,8.63,1619424742
47,awjilah,29.1081,21.2869,44,69.26,0,6.26,1619424742
48,hasaki,35.7333,140.8333,41,64.0,20,13.8,1619424342
49,avarua,-21.2078,-159.775,94,73.4,42,1.14,1619424468
50,margate,51.3813,1.3862,61,45.0,28,1.99,1619424743
51,hamilton,39.1834,-84.5333,93,44.01,1,3.04,1619424357
52,thatta,24.7475,67.9235,11,106.05,0,10.0,1619424743
53,acapulco,16.8634,-99.8901,71,79.32,100,4.34,1619424582
54,ternovskaya,45.8542,40.4086,82,48.0,100,7.49,1619424744
55,nichinan,31.6,131.3667,39,64.4,75,8.05,1619424744
56,cabo san lucas,22.8909,-109.9124,19,71.01,100,12.17,1619424197
57,moose factory,51.2585,-80.6094,86,15.8,1,2.3,1619424745
58,dikson,73.5069,80.5464,94,24.94,100,21.7,1619424364
59,buraydah,26.326,43.975,35,87.8,0,11.5,1619424745
60,ahipara,-35.1667,173.1667,77,58.17,100,5.64,1619424388
61,kautokeino,69.0125,23.0412,79,22.64,99,3.56,1619424746
62,kodiak,57.79,-152.4072,70,42.8,1,6.91,1619424311
63,phan thiet,10.9333,108.1,60,89.01,81,10.31,1619424747
64,takayama,36.1333,137.25,40,53.6,20,13.8,1619424747
65,ulaangom,49.9811,92.0667,51,42.46,12,3.83,1619424426
66,port elizabeth,-33.918,25.5701,77,68.0,0,3.44,1619424153
67,puerto ayora,-0.7393,-90.3518,91,73.72,7,4.88,1619424306
68,saint-philippe,-21.3585,55.7679,69,82.4,0,23.02,1619424352
69,sao joao da barra,-21.6403,-41.0511,93,71.64,63,3.94,1619424500
70,iqaluit,63.7506,-68.5145,93,32.0,90,1.48,1619424154
71,deputatskiy,69.3,139.9,89,26.83,88,2.57,1619424577
72,bengkulu,-3.8004,102.2655,78,83.14,87,7.27,1619424453
73,char bhadrasan,23.3167,90.2167,38,96.8,4,11.5,1619424749
74,thompson,55.7435,-97.8558,100,23.0,40,3.36,1619424315
75,hilo,19.7297,-155.09,83,71.6,75,6.42,1619424749
76,madang,-5.2246,145.7966,78,80.46,81,4.05,1619424750
77,mehamn,71.0357,27.8492,80,35.6,75,9.22,1619424750
78,carnarvon,-24.8667,113.6333,45,84.2,4,12.66,1619424345
79,severodvinsk,64.5635,39.8302,93,39.2,90,6.71,1619424751
80,pevek,69.7008,170.3133,84,25.34,100,5.57,1619424380
81,isoka,-10.1606,32.6335,70,72.01,77,4.16,1619424751
82,sokoni,-6.4333,39.55,83,84.2,20,11.5,1619424752
83,lebu,-37.6167,-73.65,93,52.77,8,8.99,1619424427
84,marathon,44.9,-89.7668,80,33.8,90,16.11,1619424752
85,vanavara,60.34,102.2797,57,33.06,100,12.35,1619424753
86,praia,14.9215,-23.5087,68,69.8,75,11.5,1619424753
87,necochea,-38.5473,-58.7368,95,53.01,0,0.81,1619424754
88,rio grande,-32.035,-52.0986,92,57.99,93,13.67,1619424357
89,tarauaca,-8.1614,-70.7656,99,70.9,100,3.56,1619424754
90,komsomolskiy,40.4272,71.7189,19,80.6,0,4.61,1619424539
91,namatanai,-3.6667,152.4333,77,81.1,67,4.38,1619424755
92,gazli,40.1333,63.45,7,87.93,0,19.71,1619424755
93,amapa,1.0,-52.0,99,70.41,100,0.76,1619424755
94,bontang,0.1333,117.5,69,84.15,21,5.3,1619424486
95,pisco,-13.7,-76.2167,88,63.0,0,2.3,1619424277
96,perevolotskiy,51.8763,54.1938,36,50.47,100,3.89,1619424756
97,vila franca do campo,37.7167,-25.4333,82,57.2,75,6.91,1619424507
98,touros,-5.1989,-35.4608,100,73.4,0,4.61,1619424354
99,hofn,64.2539,-15.2082,61,44.6,20,11.5,1619424425
100,fairbanks,64.8378,-147.7164,60,39.2,1,2.91,1619424467
101,asau,46.4333,26.4,63,39.0,88,1.45,1619424758
102,punta arenas,-53.15,-70.9167,93,42.8,90,9.22,1619424306
103,nemuro,43.3236,145.575,26,41.0,20,10.36,1619424483
104,caravelas,-17.7125,-39.2481,91,71.87,84,6.4,1619424377
105,nanortalik,60.1432,-45.2371,99,33.66,100,9.37,1619424398
106,phanom thuan,14.1303,99.6986,36,98.51,98,4.97,1619424759
107,borovoy,55.4333,86.0833,19,57.2,0,8.95,1619424760
108,torbay,47.6666,-52.7314,53,44.6,40,17.27,1619424199
109,san cristobal,7.7669,-72.225,83,66.7,87,1.19,1619424341
110,hermanus,-34.4187,19.2345,75,64.99,0,11.01,1619424295
111,kichmengskiy gorodok,59.9816,45.7854,94,39.7,100,4.72,1619424760
112,saldanha,-33.0117,17.9442,94,59.0,2,6.91,1619424386
113,ketchikan,55.3422,-131.6461,60,39.2,1,3.42,1619424527
114,nantucket,41.2835,-70.0995,81,48.2,1,14.97,1619424761
115,hervey bay,-25.2986,152.8535,71,70.0,4,3.0,1619424296
116,finnsnes,69.2296,17.9811,75,35.6,75,11.5,1619424762
117,mount isa,-20.7333,139.5,32,86.0,40,9.22,1619424326
118,yellowknife,62.456,-114.3525,78,1.4,20,10.36,1619424405
119,gizo,-8.103,156.8419,74,83.57,79,6.33,1619424763
120,saint-pierre,-21.3393,55.4781,65,82.4,0,21.85,1619424763
121,novyy urengoy,66.0833,76.6333,99,32.7,91,15.61,1619424763
122,airai,-8.9266,125.4092,56,68.05,3,2.48,1619424328
123,broome,42.2506,-75.833,69,35.01,90,18.41,1619424370
124,svetlaya,46.5389,138.3297,59,42.51,34,10.78,1619424731
125,jamestown,42.097,-79.2353,86,30.99,90,11.5,1619424163
126,karasjok,69.4719,25.5112,75,35.6,75,8.05,1619424764
127,ormara,25.2088,64.6357,61,84.29,4,15.79,1619424765
128,muros,42.7762,-9.0603,94,57.0,62,1.01,1619424765
129,sao felix do xingu,-6.6447,-51.995,98,71.49,96,1.07,1619424765
130,provideniya,64.3833,-173.3,94,32.65,74,1.01,1619424345
131,clyde river,70.4692,-68.5914,93,23.0,90,2.3,1619424337
132,hithadhoo,-0.6,73.0833,66,82.96,8,4.68,1619424113
133,manokwari,-0.8667,134.0833,78,81.5,78,5.26,1619424446
134,talara,-4.5772,-81.2719,78,70.72,100,15.64,1619424566
135,brufut,13.3814,-16.7518,83,69.8,0,5.75,1619424767
136,pingzhuang,42.0372,119.2889,33,69.06,100,14.61,1619424767
137,whitehorse,60.7161,-135.0538,31,44.6,1,2.3,1619424768
138,petrivka,46.9695,30.9591,76,51.8,20,13.42,1619424768
139,liusha,27.2098,108.59,80,59.97,100,3.22,1619424768
140,klaksvik,62.2266,-6.589,87,44.6,100,10.36,1619424331
141,sinnamary,5.3833,-52.95,90,76.6,100,9.08,1619424571
142,tiksi,71.6872,128.8694,95,22.77,100,13.6,1619424332
143,arraial do cabo,-22.9661,-42.0278,90,72.21,9,5.48,1619424412
144,lompoc,34.6391,-120.4579,87,51.8,100,3.44,1619424410
145,beidao,34.5686,105.8933,16,52.0,100,1.99,1619424403
146,walvis bay,-22.9575,14.5053,94,63.0,20,1.14,1619424770
147,zhezkazgan,47.8043,67.7144,31,67.06,98,8.61,1619424770
148,port-gentil,-0.7193,8.7815,84,84.2,40,5.75,1619424770
149,huarmey,-10.0681,-78.1522,88,66.6,22,6.35,1619424482
150,comarapa,-17.9,-64.4833,94,46.71,54,1.03,1619424771
151,mahebourg,-20.4081,57.7,83,78.8,75,13.8,1619424355
152,paamiut,61.994,-49.6678,98,34.54,100,7.09,1619424772
153,souillac,-20.5167,57.5167,83,78.8,75,14.97,1619424772
154,wamba,8.9333,8.6,60,83.26,100,3.51,1619424773
155,maraba,-5.3686,-49.1178,98,75.2,90,2.3,1619424773
156,aklavik,68.2191,-135.0107,85,12.2,100,6.91,1619424599
157,chipinge,-20.1883,32.6236,28,79.56,0,1.34,1619424773
158,san juan del cesar,10.7711,-73.0031,79,72.52,57,4.65,1619424774
159,bathsheba,13.2167,-59.5167,61,78.8,75,13.8,1619424465
160,tuktoyaktuk,69.4541,-133.0374,97,0.0,44,8.72,1619424297
161,milkovo,54.7167,158.6167,92,36.79,100,2.73,1619424517
162,namibe,-15.1961,12.1522,88,71.6,75,5.75,1619424775
163,ilulissat,69.2167,-51.1,43,48.2,75,19.57,1619424402
164,dunkirk,51.05,2.3667,67,48.99,26,4.0,1619424776
165,cayenne,4.9333,-52.3333,94,79.0,75,8.79,1619424455
166,bambous virieux,-20.3428,57.7575,83,80.01,75,13.8,1619424343
167,san juan,-31.5375,-68.5364,53,60.26,0,2.44,1619424719
168,faanui,-16.4833,-151.75,66,81.03,2,2.84,1619424336
169,kirakira,-10.4544,161.9205,80,81.09,99,2.37,1619424330
170,barrow,71.2906,-156.7887,73,15.8,1,13.8,1619424305
171,baruun-urt,46.6806,113.2792,46,47.05,100,27.51,1619424777
172,upernavik,72.7868,-56.1549,76,30.7,100,3.15,1619424344
173,marsh harbour,26.5412,-77.0636,78,77.49,0,5.1,1619424205
174,esil,51.9556,66.4042,84,48.83,100,12.82,1619424778
175,basco,20.4487,121.9702,70,75.63,30,20.31,1619424361
176,kuzedeyevo,53.3308,87.2019,56,50.7,99,3.09,1619424779
177,taoudenni,22.6783,-3.9836,13,90.37,2,10.63,1619424557
178,bredasdorp,-34.5322,20.0403,94,53.6,75,3.44,1619424329
179,roald,62.5833,6.1333,60,41.0,0,10.36,1619424330
180,qaqortoq,60.7167,-46.0333,37,48.2,75,27.63,1619424780
181,dobris,49.7811,14.1672,65,46.0,98,4.0,1619424780
182,nabire,-3.3667,135.4833,75,82.54,31,3.4,1619424780
183,makakilo city,21.3469,-158.0858,68,75.2,1,5.75,1619424782
184,talnakh,69.4865,88.3972,85,14.88,100,10.02,1619424440
185,ancud,-41.8697,-73.8203,93,52.0,90,4.61,1619424782
186,gouyave,12.1646,-61.7296,83,77.0,20,11.5,1619424783
187,chandbali,20.7833,86.7667,25,102.56,1,17.25,1619424783
188,onega,63.9061,38.1404,94,35.55,100,11.12,1619424784
189,lixourion,38.2019,20.4314,82,64.4,20,9.22,1619424784
190,zephyrhills,28.2336,-82.1812,94,62.01,90,5.99,1619424785
191,grindavik,63.8424,-22.4338,93,39.2,0,12.66,1619424512
192,bardiyah,31.7561,25.0865,61,66.07,0,18.59,1619424785
193,amboise,47.4125,0.9827,61,48.99,0,13.8,1619424786
194,novyy urgal,51.0736,132.5642,25,57.27,93,7.72,1619424787
195,kahului,20.8947,-156.47,78,73.4,40,14.97,1619424428
196,pelotas,-31.7719,-52.3425,92,57.99,14,8.93,1619424787
197,arrifes,37.7667,-25.7,82,57.2,75,6.91,1619424788
198,chor,25.5167,69.7667,5,107.98,0,7.27,1619424788
199,takhtamygda,54.1,123.5667,43,56.01,100,7.76,1619424731
200,mar del plata,-38.0023,-57.5575,82,59.0,75,7.09,1619424353
201,biak,-0.9131,122.8766,71,81.52,80,4.79,1619424789
202,kaitangata,-46.2817,169.8464,63,45.0,36,7.0,1619424367
203,norman wells,65.282,-126.8329,54,23.0,40,2.3,1619424438
204,lakselv,70.0513,24.9718,75,35.6,75,8.05,1619424790
205,geraldton,-28.7667,114.6,34,82.4,99,9.22,1619424790
206,beloha,-25.1667,45.05,37,89.29,0,5.06,1619424607
207,yulara,-25.2406,130.9889,18,78.8,0,12.66,1619424315
208,tumaco,1.7986,-78.8156,92,75.9,100,7.38,1619424791
209,fort-shevchenko,44.5086,50.263,62,61.07,93,5.5,1619424791
210,moosomin,50.1333,-101.6677,89,33.55,92,5.75,1619424791
211,nikolskoye,59.7035,30.7861,93,41.0,90,11.18,1619424338
212,oromocto,45.8351,-66.4792,81,44.6,90,6.91,1619424792
213,mokobeng,-22.9965,27.6678,25,75.83,0,8.23,1619424792
214,akyab,20.15,92.9,67,86.79,0,16.33,1619424793
215,bereda,43.2686,-7.5406,100,53.01,99,1.99,1619424793
216,boffa,10.1667,-14.0333,67,78.37,25,2.53,1619424793
217,blairmore,49.6,-114.4353,100,30.99,100,1.14,1619424794
218,henties bay,-22.116,14.2845,88,63.0,4,3.0,1619424580
219,lavrentiya,65.5833,-171.0,94,24.03,100,5.53,1619424371
220,cabo rojo,18.0866,-67.1457,83,75.99,0,7.05,1619424795
221,horta,38.5333,-28.6333,77,59.0,40,8.05,1619424795
222,saint-augustin,51.226,-58.6502,84,33.78,100,6.69,1619424796
223,kavaratti,10.5669,72.642,68,84.88,1,6.04,1619424402
224,kaa-khem,51.6833,94.7333,28,48.31,100,9.71,1619424796
225,metro,-5.1131,105.3067,58,88.0,47,6.31,1619424797
226,coquimbo,-29.9533,-71.3436,87,53.6,90,3.44,1619424797
227,san vicente,-26.6167,-54.1333,99,49.96,18,2.8,1619424798
228,sosnovo-ozerskoye,52.5249,111.5418,77,34.83,100,18.07,1619424568
229,luangwa,-15.6167,30.4167,49,83.79,84,7.43,1619424798
230,coihaique,-45.5752,-72.0662,97,43.77,67,5.99,1619424619
231,bethel,41.3712,-73.414,49,42.8,1,9.22,1619424334
232,lazaro cardenas,17.9583,-102.2,83,74.01,90,4.03,1619424799
233,safaga,26.7292,33.9365,26,82.4,0,20.71,1619424799
234,zhigansk,66.7697,123.3711,91,26.91,100,13.47,1619424800
235,arman,59.7,150.1667,71,24.89,3,3.94,1619424800
236,kroya,-7.6331,109.2461,68,84.22,31,8.3,1619424800
237,guiong,6.4186,122.0258,74,84.2,40,9.22,1619424801
238,kurush,41.2841,47.8345,56,68.0,86,4.61,1619424801
239,waipawa,-41.4122,175.5153,58,59.0,0,16.11,1619424476
240,san patricio,28.017,-97.5169,88,70.0,75,9.22,1619424515
241,oga,46.4631,10.347,93,55.0,75,3.44,1619424802
242,te anau,-45.4167,167.7167,82,40.1,79,3.76,1619424411
243,jiangkou,25.4872,119.1986,57,75.2,0,20.13,1619424802
244,karpogory,64.0019,44.4451,92,39.94,100,4.83,1619424803
245,ashtabula,41.7001,-80.7665,93,28.4,1,4.47,1619424803
246,banda aceh,5.5577,95.3222,64,85.93,100,8.59,1619424583
247,vardo,70.3705,31.1107,75,35.6,40,11.5,1619424594
248,port lincoln,-34.7333,135.8667,72,62.46,0,9.73,1619424502
249,shingu,33.7333,135.9833,39,64.4,0,16.11,1619424804
250,madras,13.0878,80.2785,55,93.2,40,11.5,1619424804
251,koumac,-20.5667,164.2833,74,73.76,48,17.16,1619424805
252,havelock,34.8791,-76.9013,100,55.0,1,4.61,1619424805
253,avera,33.194,-82.5271,73,55.4,1,3.44,1619424441
254,bulgan,48.8125,103.5347,36,42.4,100,11.86,1619424806
255,naze,28.3667,129.4833,73,71.6,75,17.27,1619424806
256,bismil,37.8486,40.6658,18,89.6,40,14.97,1619424806
257,kushmurun,52.4503,64.6311,68,51.69,100,16.4,1619424807
258,chuy,-33.6971,-53.4616,76,59.47,90,8.37,1619424380
259,koygorodok,60.445,50.9968,88,37.69,88,6.44,1619424808
260,lumberton,34.6182,-79.0086,76,51.8,1,4.61,1619424808
261,nouadhibou,20.931,-17.0347,82,64.4,0,12.66,1619424808
262,slave lake,55.2834,-114.769,64,32.0,40,5.01,1619424809
263,hammerfest,70.6634,23.6821,93,32.0,75,2.3,1619424809
264,shaowu,27.3409,117.4831,85,68.67,100,1.81,1619424810
265,chimbote,-9.0853,-78.5783,92,64.6,39,5.01,1619424810
266,castro,-24.7911,-50.0119,96,53.4,15,2.8,1619424452
267,youkounkoun,12.5333,-13.1333,46,80.17,5,5.59,1619424811
268,colac,-38.3333,143.5833,1,55.99,99,1.99,1619424566
269,tranas,58.0372,14.9782,45,42.01,20,10.36,1619424713
270,santa cruz,-17.8,-63.1667,88,64.4,0,8.05,1619424595
271,vao,-22.6667,167.4833,71,73.85,53,19.22,1619424407
272,okahandja,-21.9833,16.9167,39,72.0,1,3.44,1619424473
273,gimli,50.6336,-96.9907,81,37.4,100,5.75,1619424812
274,tilichiki,60.4667,166.1,98,31.05,100,2.15,1619424382
275,pierre,44.3683,-100.351,87,42.8,75,13.8,1619424460
276,valmiera,57.5411,25.4275,80,37.0,100,5.01,1619424813
277,ternate,0.8,127.4,69,84.45,9,7.67,1619424813
278,barcelona,41.3888,2.159,39,64.99,0,11.5,1619424672
279,polyarnyy,69.1989,33.4478,55,35.6,40,8.95,1619424814
280,cherskiy,68.75,161.3,85,16.7,55,3.02,1619424320
281,winnemucca,40.973,-117.7357,70,37.4,90,6.91,1619424400
282,cockburn town,21.4612,-71.1419,74,78.13,43,17.07,1619424815
283,plettenberg bay,-34.0527,23.3716,69,67.95,100,4.72,1619424815
284,pangai,-19.8,-174.35,77,80.62,93,12.03,1619424815
285,mildura,-34.2,142.15,42,66.2,0,4.61,1619424373
286,santa isabel do rio negro,-0.4139,-65.0192,99,72.99,100,1.97,1619424816
287,half moon bay,37.4636,-122.4286,92,48.99,2,5.06,1619424816
288,haapsalu,58.9431,23.5414,93,37.99,90,10.36,1619424817
289,conceicao do araguaia,-8.2578,-49.2647,94,73.4,0,2.3,1619424817
290,tahta,26.7693,31.5021,21,80.6,0,9.22,1619424620
291,alofi,-19.0595,-169.9187,94,75.2,21,1.14,1619424297
292,chokurdakh,70.6333,147.9167,95,29.26,99,5.17,1619424349
293,sao filipe,14.8961,-24.4956,74,70.41,9,7.09,1619424347
294,morondava,-20.2833,44.2833,57,83.89,100,2.21,1619424818
295,flinders,-34.5833,150.8552,74,62.01,0,1.39,1619424818
296,mareeba,-17.0,145.4333,94,73.4,90,10.36,1619424819
297,demba,-5.51,22.2667,92,72.43,100,1.25,1619424819
298,pochutla,15.7432,-96.4661,80,79.0,74,3.87,1619424820
299,kuchaman,27.15,74.85,5,101.21,0,6.49,1619424820
300,san ignacio,17.1561,-89.0714,88,75.2,0,4.61,1619424820
301,puerto madero,14.7208,-92.4215,72,81.77,88,3.51,1619424821
302,carmen,18.6333,-91.8333,81,80.47,30,5.7,1619424821
303,codrington,-38.2667,141.9667,76,57.42,100,7.76,1619424298
304,namtsy,62.7161,129.6658,53,44.6,40,6.71,1619424822
305,esperance,-33.8667,121.9,47,77.0,43,11.5,1619424372
306,sabzevar,36.2126,57.6819,14,86.0,0,11.5,1619424718
307,tortoli,39.9256,9.6572,82,59.0,20,4.61,1619424584
308,olhao,37.0286,-7.8411,94,62.6,40,11.5,1619424822
309,sakakah,29.9697,40.2064,15,91.4,0,16.11,1619424326
310,lincoln,40.8,-96.667,63,62.01,1,12.66,1619424655
311,lingao,19.9103,109.6859,73,83.89,99,7.61,1619424823
312,almeirim,-1.5233,-52.5817,98,73.47,100,2.59,1619424824
313,moron,-34.6534,-58.6198,98,57.0,0,3.74,1619424376
314,balykshi,47.0667,51.8667,67,59.0,75,24.61,1619424824
315,jalu,29.0331,21.5482,43,69.51,0,6.91,1619424490
316,borovichi,58.3878,33.9155,95,35.53,100,11.21,1619424825
317,sikasso,10.9167,-7.0,48,85.82,75,5.64,1619424825
318,saquena,-4.6667,-73.5167,99,72.16,99,2.19,1619424826
319,langenburg,49.2544,9.8458,53,48.0,0,10.36,1619424826
320,highland springs,37.546,-77.3278,87,48.99,75,10.67,1619424826
321,constitucion,-35.3333,-72.4167,74,55.36,0,6.82,1619424299
322,east london,-33.0153,27.9116,38,78.8,0,3.44,1619424375
323,port antonio,18.18,-76.4612,78,78.8,20,5.75,1619424827
324,fukue,32.6881,128.8419,45,64.4,0,13.8,1619424538
325,novobirilyussy,56.9514,90.6661,86,42.46,100,5.68,1619424667
326,sao geraldo do araguaia,-6.4006,-48.555,97,72.36,100,0.67,1619424828
327,luderitz,-26.6481,15.1594,71,66.45,100,3.22,1619424460
328,mbini,1.574,9.6134,89,82.4,40,2.3,1619424828
329,conceicao da barra,-18.5933,-39.7322,96,70.45,100,3.98,1619424829
330,sao jose da coroa grande,-8.8978,-35.1478,77,77.92,55,5.48,1619424829
331,lyubymivka,46.8106,33.5686,45,56.16,34,10.56,1619424829
332,grand gaube,-20.0064,57.6608,81,80.01,98,10.0,1619424493
333,westport,41.1415,-73.3579,49,44.6,1,14.97,1619424295
334,oussouye,12.485,-16.5469,88,69.8,0,6.91,1619424830
335,shelburne,44.0787,-80.2041,74,32.0,53,7.45,1619424586
336,dingle,10.9995,122.6711,65,84.52,64,9.46,1619424337
337,adet,11.2644,37.4888,70,61.65,100,3.49,1619424831
338,kongwa,-6.2,36.4167,83,70.59,98,2.57,1619424831
339,rio grande city,26.3798,-98.8203,85,73.99,100,1.01,1619424832
340,rio rancho,35.2334,-106.6645,14,62.01,99,1.99,1619424832
341,sajanan,37.0573,9.2426,43,71.6,20,8.05,1619424832
342,washington,47.5001,-120.5015,77,42.01,35,3.0,1619424833
343,togur,58.3631,82.8265,78,48.65,100,8.39,1619424833
344,mount gambier,-37.8333,140.7667,72,59.0,90,8.05,1619424365
345,vila velha,-20.3297,-40.2925,88,73.4,0,5.75,1619424287
346,mbandaka,0.0487,18.2603,78,78.8,89,6.2,1619424834
347,isla mujeres,21.2311,-86.731,88,80.01,20,5.75,1619424834
348,swan hill,-35.3378,143.5544,44,61.05,0,7.4,1619424835
349,narsaq,60.9167,-46.05,37,48.2,75,27.63,1619424308
350,uchaly,54.2996,59.4521,36,47.35,21,17.96,1619424835
351,inta,66.0317,60.1659,61,47.26,99,17.43,1619424835
352,sinazongwe,-17.2614,27.4618,68,74.57,64,3.89,1619424836
353,genhe,50.7833,121.5167,57,55.62,100,10.18,1619424836
354,sfantu gheorghe,45.8667,25.7833,71,30.99,97,10.51,1619424837
355,goderich,43.7501,-81.7165,86,24.8,79,4.61,1619424361
356,formosa,-26.1775,-58.1781,94,55.4,0,4.61,1619424837
357,doha,25.2867,51.5333,17,102.2,94,9.22,1619424838
358,kungurtug,50.5994,97.5228,64,34.7,100,10.8,1619424391
359,wegrow,52.3995,22.0163,53,44.01,67,11.41,1619424839
360,quatre cocos,-20.2078,57.7625,83,80.01,75,13.8,1619424359
361,masaka,-0.3338,31.7341,78,68.2,100,4.27,1619424839
362,mandaguacu,-23.3472,-52.0953,96,57.15,29,4.9,1619424840
363,ostrovnoy,68.0531,39.5131,90,31.6,100,23.02,1619424430
364,pulandian,39.3953,121.9669,47,59.0,0,8.95,1619424840
365,tyrma,50.0833,132.1667,23,57.2,97,5.53,1619424841
366,formiga,-20.4644,-45.4264,63,57.63,15,2.62,1619424841
367,college,64.8569,-147.8028,65,39.2,20,8.05,1619424574
368,umtata,-31.5889,28.7844,38,73.4,0,5.75,1619424842
369,lewistown,40.5992,-77.5714,72,37.99,10,1.01,1619424842
370,ouallam,14.3188,2.0866,27,94.19,49,17.25,1619424843
371,baltasi,56.3462,50.2062,47,45.72,15,26.04,1619424843
372,hohhot,40.8106,111.6522,23,57.2,20,22.37,1619424843
373,kushiro,42.975,144.3747,38,41.0,75,12.66,1619424844
374,port shepstone,-30.7414,30.455,38,73.02,100,3.22,1619424758
375,virginia beach,36.8529,-75.978,71,51.8,1,4.61,1619424844
376,victoria,22.2855,114.1577,77,77.0,100,5.01,1619424186
377,emerald,-23.5333,148.1667,20,82.4,0,9.22,1619424845
378,savinka,50.0785,47.0994,38,52.61,100,5.68,1619424845
379,atar,20.5169,-13.0499,22,76.59,5,9.04,1619424374
380,kathmandu,27.7167,85.3167,26,84.2,20,10.36,1619424664
381,concordia,-31.393,-58.0209,92,52.0,0,3.0,1619424662
382,inuvik,68.3499,-133.7218,85,12.2,53,6.91,1619424846
383,haines junction,60.7522,-137.5108,60,33.8,0,1.14,1619424404
384,puerto del rosario,28.5004,-13.8627,68,69.8,20,9.22,1619424847
385,yeppoon,-23.1333,150.7333,53,73.4,0,4.61,1619424847
386,itarema,-2.9248,-39.9167,86,74.39,12,7.87,1619424496
387,prince rupert,54.3161,-130.3201,76,51.8,1,4.61,1619424809
388,ryotsu,38.0833,138.4333,53,50.0,40,11.5,1619424848
389,kailua,21.4022,-157.7394,64,75.2,40,10.36,1619424484
390,bonavista,48.6499,-53.1147,86,37.99,100,1.14,1619424848
391,gravdal,68.1214,13.5031,75,37.4,75,4.61,1619424849
392,skelleftea,64.7507,20.9528,51,33.8,0,12.66,1619424771
393,villarrobledo,39.2699,-2.6012,96,51.01,100,1.99,1619424849
394,higueron,18.5833,-99.1667,51,77.0,98,2.01,1619424850
395,alyangula,-13.8483,136.4192,100,77.0,75,5.75,1619424527
396,saint anthony,45.0205,-93.218,56,42.8,1,8.05,1619424850
397,leningradskiy,69.3833,178.4167,96,18.64,18,2.91,1619424381
398,karratha,-20.7377,116.8463,28,85.64,0,13.89,1619424600
399,halifax,44.6453,-63.5724,100,48.99,100,14.97,1619424631
400,salta,-24.7859,-65.4117,94,55.99,90,0.87,1619424820
401,tiznit,29.5833,-9.5,64,59.07,2,0.4,1619424472
402,atambua,-9.1061,124.8925,56,79.21,2,5.06,1619424461
403,tokur,53.1333,132.9,47,46.17,98,5.61,1619424731
404,san jose,37.3394,-121.895,76,48.0,1,0.89,1619424793
405,mahenge,-8.6833,36.7167,85,70.05,74,2.24,1619424852
406,shahr-e babak,30.1165,55.1186,18,76.75,100,7.14,1619424853
407,cabedelo,-6.9811,-34.8339,100,73.4,0,3.44,1619424476
408,narvik,68.4384,17.4272,65,37.4,75,3.44,1619424853
409,batemans bay,-35.7167,150.1833,79,62.01,0,2.15,1619424853
410,asfi,32.2994,-9.2372,77,64.58,7,23.33,1619424854
411,aranos,-24.1333,19.1167,19,74.23,100,15.39,1619424854
412,synya,65.3718,58.0387,55,49.82,97,2.48,1619424855
413,salalah,17.0151,54.0924,58,87.8,20,12.66,1619424608
414,beringovskiy,63.05,179.3167,93,27.86,74,2.86,1619424616
415,pahrump,36.2083,-115.9839,36,59.0,100,11.99,1619424855
416,dauriya,49.9333,116.8667,9,56.71,88,26.98,1619424376
417,olenegorsk,68.15,33.3,79,31.89,96,11.23,1619424790
418,viedma,-40.8135,-62.9967,74,51.73,1,9.1,1619424612
419,ratnapura,6.6828,80.3992,53,92.39,50,4.5,1619424856
420,xichang,27.8964,102.2634,22,83.53,9,5.57,1619424857
421,flin flon,54.7682,-101.865,79,29.12,99,5.1,1619424545
422,mbala,-8.8402,31.3659,67,70.92,27,5.39,1619424857
423,sioux lookout,50.1001,-91.917,35,35.6,75,10.36,1619424336
424,rio gallegos,-51.6226,-69.2181,70,42.8,40,3.44,1619424408
425,grand-santi,4.25,-54.3833,99,72.72,100,0.98,1619424858
426,mangai,-4.05,19.5333,76,79.47,98,3.33,1619424858
427,preobrazheniye,42.9019,133.9064,50,46.67,24,15.41,1619424732
428,puerto colombia,10.9878,-74.9547,89,78.8,40,3.44,1619424416
429,santa marta,11.2408,-74.199,73,82.99,97,13.27,1619424176
430,gumdag,39.2061,54.5906,23,85.95,1,4.41,1619424859
431,cap malheureux,-19.9842,57.6142,82,79.0,98,5.99,1619424860
432,korla,41.7597,86.1469,16,62.92,74,6.44,1619424860
433,saint-leu,-21.15,55.2833,65,82.4,0,21.85,1619424861
434,cidreira,-30.1811,-50.2056,77,61.79,68,15.93,1619424436
435,lasa,46.6166,10.7002,81,55.0,75,3.44,1619424364
436,bridlington,54.0831,-0.1919,61,46.4,20,5.75,1619424861
437,oktyabrskoye,43.0645,44.7417,71,55.4,95,4.47,1619424862
438,howell,42.6073,-83.9294,80,34.0,40,3.44,1619424862
439,tagusao,9.1924,117.8141,70,83.57,23,7.85,1619424863
440,at-bashi,41.1702,75.8106,34,57.15,32,1.21,1619424529
441,santa fe,-31.6333,-60.7,82,55.0,0,1.34,1619424821
442,turukhansk,65.8167,87.9833,81,26.65,27,1.99,1619424348
443,iralaya,15.0,-83.2333,74,77.94,45,8.77,1619424864
444,isangel,-19.55,169.2667,78,76.51,100,13.78,1619424318
445,pacific grove,36.6177,-121.9166,89,50.0,38,7.07,1619424396
446,duma,34.7653,108.135,63,66.2,40,8.95,1619424864
447,gotsu,35.0,132.2167,55,59.0,40,9.22,1619424865
448,burnie,-41.0667,145.9167,74,54.0,100,8.01,1619424411
449,bonthe,7.5264,-12.505,77,82.04,100,6.4,1619424865
450,tazovskiy,67.4667,78.7,90,29.64,100,15.68,1619424866
451,charlottesville,38.0293,-78.4767,58,53.6,1,3.44,1619424749
452,port hardy,50.6996,-127.4199,100,46.4,20,3.44,1619424578
453,nhamunda,-2.1861,-56.7131,98,73.56,89,1.61,1619424866
454,honningsvag,70.9821,25.9704,69,34.72,100,10.38,1619424867
455,lata,40.1629,-8.3327,88,62.01,40,4.61,1619424605
456,cooma,-36.2333,149.1333,51,57.2,0,6.91,1619424867
457,porto novo,6.4965,2.6036,79,84.2,40,10.36,1619424295
458,otjimbingwe,-22.35,16.1333,20,77.41,1,11.23,1619424868
459,dhidhdhoo,6.8833,73.1,71,84.56,12,5.91,1619424868
460,lorengau,-2.0226,147.2712,74,82.62,99,1.28,1619424321
461,iraquara,-12.2486,-41.6194,94,71.6,75,1.14,1619424869
462,kloulklubed,7.0419,134.2556,74,86.0,75,13.8,1619424458
463,surskoye,54.4821,46.7214,40,46.99,19,17.92,1619424870
464,puksoozero,62.5903,40.6066,95,39.52,100,5.35,1619424870
465,raudeberg,61.9875,5.1352,45,42.8,0,10.36,1619424870
466,brovary,50.5,30.7667,81,46.99,75,2.24,1619424871
467,dipolog,8.5894,123.3414,64,84.56,54,4.38,1619424576
468,normandin,48.8333,-72.5321,80,30.2,79,18.41,1619424871
469,puerto leguizamo,-0.1934,-74.7819,98,71.62,99,0.98,1619424872
470,xining,36.6167,101.7667,18,58.53,100,22.7,1619424872
471,jumla,29.2747,82.1838,20,71.01,27,10.74,1619424872
472,tucuman,-26.8241,-65.2226,88,59.0,0,4.61,1619424758
473,yantzaza,-3.8278,-78.7594,98,64.0,97,1.23,1619424547
474,tete,-16.1564,33.5867,52,85.91,19,4.61,1619424873
475,mountain home,43.133,-115.6912,100,44.6,90,9.22,1619424873
476,nome,64.5011,-165.4064,65,39.2,1,11.5,1619424459
477,yandyki,45.7691,47.1258,46,62.8,100,13.49,1619424874
478,grand forks,47.9417,-97.4337,100,35.6,90,8.05,1619424875
479,chernyshevsk,52.5243,117.0174,46,58.93,92,14.38,1619424875
480,chapais,49.7834,-74.8492,86,21.2,90,14.97,1619424569
481,samana,19.2056,-69.3369,89,72.03,21,2.95,1619424876
482,puerto carreno,6.189,-67.4859,77,77.94,100,4.81,1619424602
483,sal rei,16.1833,-22.9167,77,68.0,40,3.44,1619424877
484,turkmenabat,39.0733,63.5786,16,86.0,0,16.11,1619424877
485,port augusta,-32.5,137.7667,68,68.0,0,10.36,1619424573
486,grootfontein,-19.5667,18.1167,30,70.16,0,9.08,1619424878
487,geelong,-38.1471,144.3607,88,60.01,90,5.75,1619424716
488,ola,59.5833,151.2833,69,26.42,24,5.21,1619424878
489,hereford,52.0568,-2.7148,70,43.0,66,5.99,1619424879
490,tevriz,57.509,72.4042,73,48.79,98,12.53,1619424879
491,alikovo,55.7383,46.7549,39,46.4,40,26.84,1619424880
492,bud,39.447,-86.1758,66,45.0,86,5.44,1619424880
493,marawi,7.9986,124.2928,83,82.99,94,5.99,1619424566
494,comodoro rivadavia,-45.8667,-67.5,62,55.4,0,5.75,1619424323
495,maputo,-25.9653,32.5892,69,78.8,40,6.91,1619424600
496,tsogni,-2.7942,10.0988,76,82.33,83,4.14,1619424881
497,sengiley,53.9622,48.7944,43,50.0,40,17.9,1619424881
498,nizhnevartovsk,60.9344,76.5531,24,55.4,0,13.42,1619424780
499,nakamura,32.9833,132.9333,53,62.28,91,4.94,1619424543
500,palmer,42.1584,-72.3287,60,42.01,1,13.8,1619424882
501,djibo,14.1022,-1.6306,24,92.48,79,11.79,1619424882
502,kinshasa,-4.3246,15.3215,88,77.0,20,3.44,1619424883
503,aykhal,66.0,111.5,91,14.63,100,27.81,1619424395
504,shitanjing,39.2342,106.3439,15,48.45,100,26.24,1619424883
505,sept-iles,50.2001,-66.3821,81,39.0,100,10.36,1619424884
506,audru,58.4086,24.3739,80,37.99,100,5.01,1619424884
507,vicksburg,32.3526,-90.8779,100,55.4,1,4.61,1619424885
508,kendari,-3.945,122.4989,65,84.54,88,6.29,1619424885
509,churapcha,62.0025,132.4325,98,33.39,100,8.9,1619424885
510,san francisco,37.7749,-122.4194,76,51.8,20,6.91,1619424589
511,tonantins,-2.8731,-67.8022,99,72.73,99,0.6,1619424886
512,goure,13.9835,10.2704,14,99.0,11,6.17,1619424886
513,berbera,10.4396,45.0143,54,89.82,56,8.79,1619424887
514,khani,41.9563,42.9566,72,59.0,90,6.91,1619424887
515,kudahuvadhoo,2.6708,72.8944,69,83.39,63,4.99,1619424541
516,nuuk,64.1835,-51.7216,87,37.4,75,6.91,1619424550
517,santa maria del oro,25.9333,-105.3667,23,61.38,100,4.7,1619424888
518,adrar,20.5022,-10.0711,22,78.4,52,9.4,1619424477
519,xacmaz,41.4635,48.806,62,62.53,97,7.61,1619424528
520,methven,-43.6333,171.65,68,48.0,58,4.5,1619424889
521,hualmay,-11.0964,-77.6139,91,65.21,20,6.38,1619424339
522,bucerias,20.75,-105.3333,81,75.99,93,2.77,1619424889
523,richards bay,-28.783,32.0377,62,75.38,34,1.41,1619424360
524,vestmannaeyjar,63.4427,-20.2734,71,46.4,0,3.44,1619424611
525,baghdad,33.3406,44.4009,18,98.6,100,12.66,1619424890
526,mount darwin,-16.7725,31.5838,38,78.85,51,8.1,1619424890
527,suntar,62.1444,117.6319,84,29.41,100,11.74,1619424731
528,pucara,-15.9803,-71.4606,59,34.02,0,2.93,1619424891
529,umea,63.8284,20.2597,52,37.4,0,16.11,1619424891
530,puerto madryn,-42.7692,-65.0385,55,57.36,39,16.31,1619424892
531,srednekolymsk,67.45,153.6833,81,23.99,28,4.61,1619424359
532,port moresby,-9.4431,147.1797,78,82.4,40,11.5,1619424892
533,la ronge,55.1001,-105.2842,59,32.0,100,10.36,1619424354
534,ekhabi,53.5102,142.9671,66,31.1,5,6.69,1619424893
535,chesapeake,36.819,-76.2749,67,57.2,1,12.73,1619424893
536,makat,47.6469,53.3463,37,67.96,100,15.73,1619424894
537,yurimaguas,-5.9,-76.0833,99,71.47,72,1.34,1619424894
538,dongsheng,39.8161,109.9776,14,49.26,100,28.1,1619424894
539,bidor,4.1139,101.2884,62,93.2,40,4.61,1619424895
540,nioro,13.35,-15.75,39,74.59,36,4.88,1619424363
541,bubaque,11.2833,-15.8333,62,77.32,10,9.1,1619424367
542,natitingou,10.3042,1.3796,69,80.6,0,4.61,1619424896
543,platteville,42.7342,-90.4785,65,41.0,1,12.66,1619424896
544,ust-nera,64.5667,143.2,84,23.25,100,4.72,1619424897
545,changli,39.7042,119.1506,31,62.01,98,12.53,1619424897
546,new city,41.1476,-73.9893,62,43.0,25,13.06,1619424897
547,wakkanai,45.4094,141.6739,57,44.6,20,14.97,1619424898
548,gueret,46.1667,1.8667,51,57.2,100,12.66,1619424898
549,meulaboh,4.1363,96.1285,63,86.0,93,8.5,1619424899
550,sterling,39.0062,-77.4286,61,45.0,1,17.27,1619424899
551,pleasantville,39.3898,-74.524,49,50.0,1,13.8,1619424899
552,mahajanga,-15.7167,46.3167,52,91.4,20,10.36,1619424323
553,faya,18.3851,42.4509,31,73.4,40,3.44,1619424322
